[
  {"name": "מטולה", "lat": 33.2773, "lng": 35.5809},
  {"name": "מג'דל שמס", "lat": 33.2647, "lng": 35.7719},
  {"name": "קריית שמונה", "lat": 33.2073, "lng": 35.5721},
  {"name": "קצרין", "lat": 32.9934, "lng": 35.6897},
  {"name": "צפת", "lat": 32.9646, "lng": 35.4960},
  {"name": "נהריה", "lat": 33.0059, "lng": 35.0940},
  {"name": "מעלות תרשיחא", "lat": 32.9982, "lng": 35.2698},
  {"name": "חצור הגלילית", "lat": 32.9814, "lng": 35.5447},
  {"name": "ראש פינה", "lat": 32.9681, "lng": 35.5422},
  {"name": "כרמיאל", "lat": 32.9126, "lng": 35.2960},
  {"name": "עכו", "lat": 32.9276, "lng": 35.0827},
  {"name": "טבריה", "lat": 32.7937, "lng": 35.5323},
  {"name": "שפרעם", "lat": 32.8055, "lng": 35.1694},
  {"name": "חיפה", "lat": 32.7940, "lng": 34.9896},
  {"name": "נצרת", "lat": 32.7019, "lng": 35.3033},
  {"name": "עפולה", "lat": 32.6073, "lng": 35.2897},
  {"name": "יקנעם עילית", "lat": 32.6591, "lng": 35.1052},
  {"name": "טירת כרמל", "lat": 32.7588, "lng": 34.9723},
  {"name": "דלית אל כרמל", "lat": 32.6953, "lng": 35.0481},
  {"name": "זכרון יעקב", "lat": 32.5720, "lng": 34.9530},
  {"name": "בית שאן", "lat": 32.4971, "lng": 35.4975},
  {"name": "אום אל-פחם", "lat": 32.5186, "lng": 35.1528},
  {"name": "פרדס חנה", "lat": 32.4735, "lng": 34.9814},
  {"name": "חדרה", "lat": 32.4340, "lng": 34.9197},
  {"name": "באקה אל-גרבייה", "lat": 32.4239, "lng": 35.0347},
  {"name": "נתניה", "lat": 32.3215, "lng": 34.8532},
  {"name": "טייבה", "lat": 32.2618, "lng": 35.0117},
  {"name": "כפר סבא", "lat": 32.1750, "lng": 34.9069},
  {"name": "רעננה", "lat": 32.1848, "lng": 34.8713},
  {"name": "הרצליה", "lat": 32.1624, "lng": 34.8447},
  {"name": "הוד השרון", "lat": 32.1554, "lng": 34.8935},
  {"name": "פתח תקווה", "lat": 32.0840, "lng": 34.8878},
  {"name": "ראש העין", "lat": 32.0955, "lng": 34.9566},
  {"name": "תל אביב", "lat": 32.0853, "lng": 34.7818},
  {"name": "בני ברק", "lat": 32.0849, "lng": 34.8352},
  {"name": "רמת גן", "lat": 32.0684, "lng": 34.8264},
  {"name": "גבעתיים", "lat": 32.0722, "lng": 34.8089},
  {"name": "חולון", "lat": 32.0158, "lng": 34.7874},
  {"name": "בת ים", "lat": 32.0163, "lng": 34.7431},
  {"name": "אריאל", "lat": 32.1051, "lng": 35.1743},
  {"name": "אלפי מנשה", "lat": 32.1685, "lng": 35.0135},
  {"name": "מודיעין עילית", "lat": 31.9331, "lng": 35.0371},
  {"name": "מודיעין", "lat": 31.8990, "lng": 35.0075},
  {"name": "לוד", "lat": 31.9525, "lng": 34.8966},
  {"name": "רמלה", "lat": 31.9288, "lng": 34.8710},
  {"name": "ראשון לציון", "lat": 31.9730, "lng": 34.7925},
  {"name": "נס ציונה", "lat": 31.9309, "lng": 34.7979},
  {"name": "רחובות", "lat": 31.8928, "lng": 34.8113},
  {"name": "יבנה", "lat": 31.8753, "lng": 34.7394},
  {"name": "ירושלים", "lat": 31.7683, "lng": 35.2137},
  {"name": "מעלה אדומים", "lat": 31.7770, "lng": 35.2970},
  {"name": "בית שמש", "lat": 31.7470, "lng": 34.9881},
  {"name": "אשדוד", "lat": 31.8044, "lng": 34.6553},
  {"name": "אשקלון", "lat": 31.6690, "lng": 34.5743},
  {"name": "קריית מלאכי", "lat": 31.7310, "lng": 34.7350},
  {"name": "קריית גת", "lat": 31.6062, "lng": 34.7716},
  {"name": "שדרות", "lat": 31.5238, "lng": 34.5953},
  {"name": "נתיבות", "lat": 31.4170, "lng": 34.5830},
  {"name": "אופקים", "lat": 31.3120, "lng": 34.6210},
  {"name": "באר שבע", "lat": 31.2530, "lng": 34.7915},
  {"name": "רהט", "lat": 31.3912, "lng": 34.7533},
  {"name": "ערד", "lat": 31.2610, "lng": 35.2150},
  {"name": "דימונה", "lat": 31.0690, "lng": 35.0390},
  {"name": "ירוחם", "lat": 30.9880, "lng": 34.9240},
  {"name": "עין גדי", "lat": 31.4587, "lng": 35.3895},
  {"name": "מצפה רמון", "lat": 30.6120, "lng": 34.8010},
  {"name": "עין יהב", "lat": 30.6591, "lng": 35.2427},
  {"name": "פארן", "lat": 30.3664, "lng": 35.1528},
  {"name": "יוטבתה", "lat": 29.8947, "lng": 35.0601},
  {"name": "אילת", "lat": 29.5581, "lng": 34.9482}
]